[{"code":"ZNZ","city":"ZANZIBAR","country":"TANZANIA","lat":-6.13,"lon":39.31},
{"code":"TYO","city":"TOKYO","country":"JAPAN","lat":35.68,"lon":139.76},
{"code":"AKL","city":"AUCKLAND","country":"NEW ZEALAND","lat":-36.85,"lon":174.78},
{"code":"BKK","city":"BANGKOK","country":"THAILAND","lat":13.75,"lon":100.48},
{"code":"DEL","city":"DELHI","country":"INDIA","lat":29.01,"lon":77.38},
{"code":"SIN","city":"SINGAPORE","country":"SINGAPOR","lat":1.36,"lon":103.75},
{"code":"BSB","city":"BRASILIA","country":"BRAZIL","lat":-15.67,"lon":-47.43},
{"code":"RIO","city":"RIO DE JANEIRO","country":"BRAZIL","lat":-22.90,"lon":-43.24},
{"code":"YTO","city":"TORONTO","country":"CANADA","lat":43.64,"lon":-79.40},
{"code":"IPC","city":"EASTER ISLAND","country":"CHILE","lat":-27.11,"lon":-109.36},
{"code":"SEA","city":"SEATTLE","country":"USA","lat":47.61,"lon":-122.33}]
